% (lat/lon/height=WGS84/ellipsoidal,Q=1:fix,2:float,3:sbas,4:dgps,5:single,6:ppp,ns=# of satellites)
%  GPST          latitude(deg) longitude(deg)  height(m)   Q  ns   sdn(m)   sde(m)   sdu(m)  sdne(m)  sdeu(m)  sdun(m) age(s)  ratio
2237 541708.000   31.026237102  121.442486844    22.8747   5  13   6.9919   4.4576   7.1564  -3.8860  -3.8646   3.3064   0.00    0.0
2237 541709.000   31.026237044  121.442488076    23.0933   5  14   6.9923   4.4574   7.1561  -3.8860  -3.8643   3.3067   0.00    0.0
2237 541710.000   31.026165460  121.442462468    30.5784   2  10   3.0457   1.5629   2.5087  -1.5862  -1.0017   1.2974   1.00    1.1
2237 541711.000   31.026164256  121.442463560    30.3425   2  10   2.2307   1.1364   1.8334  -1.1613  -0.7104   0.9591   1.00    1.0
2237 541712.000   31.026166156  121.442462725    30.5473   2  10   1.8436   0.9369   1.5144  -0.9596  -0.5803   0.7957   1.00    1.1
2237 541713.000   31.026169160  121.442462572    30.7201   2  10   1.6062   0.8153   1.3192  -0.8360  -0.5026   0.6949   1.00    1.0
2237 541714.000   31.026171168  121.442462143    30.8767   2  10   1.4415   0.7314   1.1842  -0.7504  -0.4496   0.6248   1.00    1.1
2237 541715.000   31.026172519  121.442461828    30.9690   2  10   1.3186   0.6690   1.0836  -0.6864  -0.4104   0.5724   1.00    1.0
2237 541716.000   31.026172581  121.442461885    30.9499   2   9   1.2519   0.6205   1.0286  -0.6404  -0.3853   0.5846   1.00    1.2
2237 541717.000   31.026172701  121.442461942    30.9343   2   9   1.1953   0.5812   0.9824  -0.6027  -0.3646   0.5877   1.00    1.2
2237 541718.000   31.026169604  121.442462133    30.6296   2  10   1.1176   0.5483   0.9191  -0.5673  -0.3420   0.5386   1.00    1.1
2237 541719.000   31.026170677  121.442461848    30.6734   2  10   1.0564   0.5205   0.8694  -0.5379  -0.3238   0.5048   1.00    1.2
2237 541720.000   31.026172418  121.442461808    30.8302   2  10   1.0042   0.4965   0.8270  -0.5126  -0.3082   0.4768   1.00    1.2
2237 541721.000   31.026173882  121.442461740    30.9575   2  10   0.9588   0.4755   0.7903  -0.4904  -0.2947   0.4530   1.00    1.1
2237 541722.000   31.026174400  121.442461969    31.0338   2  10   0.9188   0.4570   0.7581  -0.4709  -0.2829   0.4325   1.00    1.1
2237 541723.000   31.026175028  121.442461999    31.0912   2  10   0.8833   0.4404   0.7295  -0.4534  -0.2723   0.4145   1.00    1.0
2237 541724.000   31.026175440  121.442461908    31.1409   2  10   0.8514   0.4255   0.7040  -0.4377  -0.2629   0.3986   1.00    1.0
2237 541725.000   31.026175524  121.442461760    31.1571   2  10   0.8225   0.4121   0.6809  -0.4234  -0.2544   0.3844   1.00    1.0
2237 541726.000   31.026175666  121.442461738    31.1665   2  10   0.7962   0.3998   0.6600  -0.4104  -0.2467   0.3716   1.00    1.1
2237 541727.000   31.026175365  121.442461679    31.1476   2  10   0.7720   0.3885   0.6409  -0.3985  -0.2396   0.3601   1.00    1.1
2237 541728.000   31.026175810  121.442461417    31.1528   2  10   0.7498   0.3781   0.6233  -0.3875  -0.2331   0.3495   1.00    1.0
2237 541729.000   31.026175717  121.442461364    31.1567   2  10   0.7292   0.3685   0.6071  -0.3772  -0.2271   0.3399   1.00    1.0
2237 541730.000   31.026175636  121.442461312    31.1652   2  10   0.7100   0.3596   0.5921  -0.3677  -0.2215   0.3310   1.00    1.1
2237 541731.000   31.026175544  121.442461286    31.1561   2  10   0.6921   0.3513   0.5782  -0.3588  -0.2163   0.3228   1.00    1.1
2237 541732.000   31.026174858  121.442461371    31.1210   2  10   0.6753   0.3435   0.5652  -0.3505  -0.2115   0.3152   1.00    1.1
2237 541733.000   31.026174262  121.442461420    31.0604   2  10   0.6595   0.3362   0.5530  -0.3427  -0.2070   0.3081   1.00    1.1
2237 541734.000   31.026173984  121.442461373    31.0099   2  10   0.6446   0.3294   0.5416  -0.3353  -0.2027   0.3015   1.00    1.1
2237 541735.000   31.026173677  121.442461301    30.9616   2  10   0.6305   0.3229   0.5308  -0.3283  -0.1987   0.2953   1.00    1.1
2237 541736.000   31.026173215  121.442461360    30.9133   2  10   0.6172   0.3168   0.5207  -0.3217  -0.1950   0.2895   1.00    1.1
2237 541737.000   31.026172756  121.442461528    30.8731   2  10   0.6045   0.3110   0.5111  -0.3154  -0.1914   0.2840   1.00    1.1
2237 541738.000   31.026172471  121.442461552    30.8585   2  10   0.5924   0.3055   0.5020  -0.3094  -0.1880   0.2789   1.00    1.1
2237 541739.000   31.026172535  121.442461423    30.8675   2  10   0.5808   0.3003   0.4934  -0.3037  -0.1848   0.2740   1.00    1.1
2237 541740.000   31.026172380  121.442461350    30.8478   2  10   0.5698   0.2953   0.4852  -0.2982  -0.1817   0.2693   1.00    1.1
2237 541741.000   31.026172068  121.442461291    30.8313   2  10   0.5593   0.2906   0.4774  -0.2930  -0.1788   0.2649   1.00    1.1
2237 541742.000   31.026171700  121.442461274    30.7889   2  10   0.5491   0.2861   0.4699  -0.2880  -0.1760   0.2607   1.00    1.1
2237 541743.000   31.026171272  121.442461344    30.7561   2  10   0.5394   0.2817   0.4628  -0.2832  -0.1734   0.2567   1.00    1.1
2237 541744.000   31.026170788  121.442461386    30.7071   2  10   0.5301   0.2776   0.4560  -0.2786  -0.1708   0.2529   1.00    1.1
2237 541745.000   31.026170371  121.442461424    30.6980   2  10   0.5211   0.2736   0.4495  -0.2742  -0.1684   0.2492   1.00    1.1
2237 541746.000   31.026169920  121.442461417    30.6660   2  10   0.5124   0.2698   0.4432  -0.2699  -0.1660   0.2458   1.00    1.1
2237 541747.000   31.026169588  121.442461439    30.6323   2  10   0.5040   0.2661   0.4372  -0.2658  -0.1638   0.2424   1.00    1.1
2237 541748.000   31.026169239  121.442461446    30.5946   2  10   0.4959   0.2625   0.4314  -0.2618  -0.1616   0.2392   1.00    1.0
2237 541749.000   31.026169177  121.442461292    30.5739   2  10   0.4880   0.2591   0.4259  -0.2580  -0.1595   0.2361   1.00    1.0
2237 541750.000   31.026169014  121.442461203    30.5577   2  10   0.4805   0.2558   0.4205  -0.2543  -0.1575   0.2331   1.00    1.0
2237 541751.000   31.026168898  121.442461159    30.5473   2  10   0.4731   0.2527   0.4154  -0.2507  -0.1555   0.2303   1.00    1.0
2237 541752.000   31.026168949  121.442461082    30.5586   2  10   0.4660   0.2496   0.4104  -0.2472  -0.1536   0.2275   1.00    1.0
2237 541753.000   31.026168756  121.442461016    30.5439   2  10   0.4590   0.2466   0.4056  -0.2438  -0.1518   0.2249   1.00    1.0
2237 541754.000   31.026168631  121.442460914    30.5194   2  10   0.4523   0.2437   0.4009  -0.2405  -0.1501   0.2223   1.00    1.0
2237 541755.000   31.026168351  121.442460845    30.4961   2  10   0.4458   0.2410   0.3964  -0.2374  -0.1484   0.2198   1.00    1.0
2237 541756.000   31.026168230  121.442460797    30.4657   2  10   0.4394   0.2383   0.3921  -0.2343  -0.1467   0.2174   1.00    1.0
2237 541757.000   31.026168192  121.442460650    30.4482   2  10   0.4332   0.2357   0.3879  -0.2313  -0.1451   0.2151   1.00    1.0
2237 541758.000   31.026168172  121.442460567    30.4343   2  10   0.4272   0.2331   0.3838  -0.2283  -0.1435   0.2129   1.00    1.0
2237 541759.000   31.026168080  121.442460521    30.4262   2  10   0.4214   0.2307   0.3798  -0.2255  -0.1420   0.2107   1.00    1.0
2237 541760.000   31.026168162  121.442460393    30.4175   2  10   0.4156   0.2283   0.3760  -0.2227  -0.1405   0.2086   1.00    1.0
2237 541761.000   31.026168109  121.442460360    30.3961   2  10   0.4101   0.2260   0.3722  -0.2200  -0.1391   0.2065   1.00    1.0
2237 541762.000   31.026168108  121.442460312    30.3691   2  10   0.4046   0.2237   0.3686  -0.2174  -0.1377   0.2045   1.00    1.0
2237 541763.000   31.026168047  121.442460213    30.3412   2  10   0.3993   0.2215   0.3651  -0.2148  -0.1364   0.2026   1.00    1.1
2237 541764.000   31.026167984  121.442460174    30.3467   2  10   0.3941   0.2194   0.3616  -0.2123  -0.1350   0.2007   1.00    1.1
2237 541765.000   31.026167990  121.442460107    30.3380   2  10   0.3890   0.2173   0.3583  -0.2099  -0.1337   0.1988   1.00    1.1
2237 541766.000   31.026167997  121.442460075    30.3334   2  10   0.3841   0.2152   0.3550  -0.2075  -0.1325   0.1971   1.00    1.1
2237 541767.000   31.026168134  121.442460015    30.3428   2  10   0.3792   0.2133   0.3518  -0.2051  -0.1313   0.1953   1.00    1.1
2237 541768.000   31.026168240  121.442459932    30.3384   2  10   0.3745   0.2113   0.3487  -0.2029  -0.1301   0.1936   1.00    1.1
2237 541769.000   31.026168118  121.442459825    30.3333   2  10   0.3698   0.2094   0.3457  -0.2006  -0.1289   0.1920   1.00    1.1
2237 541770.000   31.026168119  121.442459821    30.3103   2  10   0.3653   0.2076   0.3428  -0.1985  -0.1277   0.1903   1.00    1.1
2237 541771.000   31.026168242  121.442459724    30.3151   2  10   0.3609   0.2058   0.3399  -0.1963  -0.1266   0.1888   1.00    1.1
2237 541772.000   31.026168413  121.442459598    30.3120   2  10   0.3565   0.2040   0.3371  -0.1942  -0.1255   0.1872   1.00    1.1
2237 541773.000   31.026168242  121.442459691    30.3185   2  10   0.3522   0.2023   0.3343  -0.1922  -0.1244   0.1857   1.00    1.1
2237 541774.000   31.026168396  121.442459680    30.3220   2  10   0.3481   0.2006   0.3316  -0.1902  -0.1234   0.1842   1.00    1.1
2237 541775.000   31.026168432  121.442459670    30.3143   2  10   0.3440   0.1990   0.3290  -0.1882  -0.1224   0.1828   1.00    1.1
2237 541776.000   31.026168537  121.442459618    30.2942   2  10   0.3400   0.1974   0.3264  -0.1863  -0.1214   0.1814   1.00    1.1
2237 541777.000   31.026168440  121.442459650    30.2810   2  10   0.3360   0.1958   0.3239  -0.1844  -0.1204   0.1800   1.00    1.1
2237 541778.000   31.026168411  121.442459597    30.2625   2  10   0.3322   0.1943   0.3215  -0.1826  -0.1194   0.1787   1.00    1.1
2237 541779.000   31.026168379  121.442459567    30.2330   2  10   0.3284   0.1928   0.3191  -0.1808  -0.1184   0.1773   1.00    1.1
2237 541780.000   31.026168352  121.442459532    30.2215   2  10   0.3247   0.1913   0.3167  -0.1790  -0.1175   0.1760   1.00    1.1
2237 541781.000   31.026168353  121.442459456    30.2098   2  10   0.3210   0.1898   0.3144  -0.1773  -0.1166   0.1748   1.00    1.1
2237 541782.000   31.026168285  121.442459463    30.2012   2  10   0.3175   0.1884   0.3121  -0.1756  -0.1157   0.1735   1.00    1.1
2237 541783.000   31.026168372  121.442459392    30.2005   2  10   0.3139   0.1870   0.3099  -0.1739  -0.1148   0.1723   1.00    1.1
2237 541784.000   31.026168323  121.442459428    30.2090   2  10   0.3105   0.1857   0.3077  -0.1723  -0.1139   0.1711   1.00    1.1
2237 541785.000   31.026168266  121.442459444    30.2050   2  10   0.3071   0.1843   0.3056  -0.1707  -0.1131   0.1699   1.00    1.1
2237 541786.000   31.026168129  121.442459558    30.2040   2  10   0.3038   0.1830   0.3035  -0.1691  -0.1122   0.1688   1.00    1.1
2237 541787.000   31.026168159  121.442459654    30.2002   2  10   0.3005   0.1817   0.3014  -0.1675  -0.1114   0.1676   1.00    1.1
2237 541788.000   31.026168184  121.442459613    30.1990   2  10   0.2973   0.1805   0.2994  -0.1660  -0.1106   0.1665   1.00    1.1
2237 541789.000   31.026168092  121.442459674    30.1767   2  10   0.2942   0.1792   0.2974  -0.1645  -0.1098   0.1654   1.00    1.2
2237 541790.000   31.026167827  121.442459880    30.1458   2  10   0.2911   0.1780   0.2955  -0.1631  -0.1090   0.1643   1.00    1.2
2237 541791.000   31.026167838  121.442459935    30.1331   2  10   0.2881   0.1768   0.2936  -0.1616  -0.1083   0.1633   1.00    1.2
2237 541792.000   31.026167692  121.442460100    30.1142   2  10   0.2851   0.1756   0.2917  -0.1602  -0.1075   0.1622   1.00    1.2
2237 541793.000   31.026167674  121.442460205    30.0934   2  10   0.2821   0.1745   0.2899  -0.1588  -0.1067   0.1612   1.00    1.2
2237 541794.000   31.026167671  121.442460334    30.0794   2  10   0.2792   0.1733   0.2880  -0.1574  -0.1060   0.1602   1.00    1.2
2237 541795.000   31.026167557  121.442460476    30.0614   2  10   0.2764   0.1722   0.2863  -0.1561  -0.1053   0.1592   1.00    1.2
2237 541796.000   31.026167424  121.442460587    30.0237   2  10   0.2736   0.1711   0.2845  -0.1548  -0.1045   0.1582   1.00    1.2
2237 541797.000   31.026167278  121.442460799    30.0074   2  10   0.2709   0.1700   0.2828  -0.1535  -0.1038   0.1573   1.00    1.2
2237 541798.000   31.026167084  121.442460950    30.0019   2  10   0.2682   0.1690   0.2811  -0.1522  -0.1031   0.1563   1.00    1.2
2237 541799.000   31.026166838  121.442461173    29.9820   2  10   0.2655   0.1679   0.2794  -0.1509  -0.1025   0.1554   1.00    1.2
2237 541800.000   31.026166830  121.442461323    29.9655   2  10   0.2629   0.1669   0.2778  -0.1497  -0.1018   0.1545   1.00    1.2
2237 541801.000   31.026166649  121.442461595    29.9567   2  10   0.2603   0.1659   0.2761  -0.1485  -0.1011   0.1536   1.00    1.2
2237 541802.000   31.026166673  121.442461747    29.9414   2  10   0.2578   0.1649   0.2745  -0.1473  -0.1004   0.1527   1.00    1.2
2237 541803.000   31.026166478  121.442462001    29.9222   2  10   0.2553   0.1639   0.2730  -0.1461  -0.0998   0.1518   1.00    1.2
2237 541804.000   31.026166356  121.442462176    29.9113   2  10   0.2529   0.1630   0.2714  -0.1449  -0.0991   0.1510   1.00    1.2
2237 541805.000   31.026166222  121.442462349    29.8903   2  10   0.2505   0.1620   0.2699  -0.1438  -0.0985   0.1501   1.00    1.2
2237 541806.000   31.026166026  121.442462559    29.8680   2  10   0.2481   0.1611   0.2684  -0.1426  -0.0979   0.1493   1.00    1.2
2237 541807.000   31.026165856  121.442462786    29.8519   2  10   0.2458   0.1601   0.2669  -0.1415  -0.0973   0.1484   1.00    1.2
2237 541808.000   31.026165540  121.442463018    29.8310   2  10   0.2435   0.1592   0.2655  -0.1404  -0.0966   0.1476   1.00    1.2
2237 541809.000   31.026165430  121.442463208    29.8033   2  10   0.2412   0.1583   0.2640  -0.1394  -0.0960   0.1468   1.00    1.2
2237 541810.000   31.026165286  121.442463383    29.7854   2  10   0.2390   0.1575   0.2626  -0.1383  -0.0954   0.1460   1.00    1.2
2237 541811.000   31.026165030  121.442463601    29.7656   2  10   0.2368   0.1566   0.2612  -0.1373  -0.0948   0.1452   1.00    1.2
2237 541812.000   31.026164793  121.442463808    29.7504   2  10   0.2346   0.1557   0.2598  -0.1363  -0.0943   0.1444   1.00    1.2
2237 541813.000   31.026164783  121.442463971    29.7479   2  10   0.2325   0.1549   0.2585  -0.1352  -0.0937   0.1437   1.00    1.2
2237 541814.000   31.026164676  121.442464104    29.7440   2  10   0.2304   0.1540   0.2571  -0.1342  -0.0931   0.1429   1.00    1.2
2237 541815.000   31.026164478  121.442464246    29.7372   2  10   0.2284   0.1532   0.2558  -0.1333  -0.0925   0.1422   1.00    1.2
2237 541816.000   31.026164425  121.442464318    29.7394   2  10   0.2263   0.1524   0.2545  -0.1323  -0.0920   0.1414   1.00    1.2
2237 541817.000   31.026164179  121.442464465    29.7409   2  10   0.2243   0.1516   0.2532  -0.1313  -0.0914   0.1407   1.00    1.1
2237 541818.000   31.026164038  121.442464592    29.7254   2  10   0.2224   0.1508   0.2519  -0.1304  -0.0909   0.1400   1.00    1.1
2237 541819.000   31.026164018  121.442464731    29.7229   2  10   0.2204   0.1500   0.2507  -0.1295  -0.0903   0.1393   1.00    1.1
2237 541820.000   31.026163969  121.442464815    29.7225   2  10   0.2185   0.1493   0.2494  -0.1286  -0.0898   0.1386   1.00    1.1
2237 541821.000   31.026163962  121.442464921    29.7365   2  10   0.2166   0.1485   0.2482  -0.1277  -0.0893   0.1379   1.00    1.1
2237 541822.000   31.026163923  121.442465017    29.7371   2  10   0.2148   0.1478   0.2470  -0.1268  -0.0887   0.1372   1.00    1.1
2237 541823.000   31.026163776  121.442465157    29.7177   2  10   0.2129   0.1470   0.2458  -0.1259  -0.0882   0.1365   1.00    1.1
2237 541824.000   31.026163631  121.442465289    29.7108   2  10   0.2111   0.1463   0.2446  -0.1251  -0.0877   0.1359   1.00    1.1
2237 541825.000   31.026163470  121.442465412    29.7005   2  10   0.2094   0.1456   0.2434  -0.1242  -0.0872   0.1352   1.00    1.1
2237 541826.000   31.026163407  121.442465512    29.6977   2  10   0.2076   0.1449   0.2423  -0.1234  -0.0867   0.1345   1.00    1.1
2237 541827.000   31.026163288  121.442465641    29.6752   2  10   0.2059   0.1442   0.2411  -0.1225  -0.0862   0.1339   1.00    1.1
2237 541828.000   31.026163074  121.442465807    29.6682   2  10   0.2042   0.1435   0.2400  -0.1217  -0.0857   0.1332   1.00    1.1
2237 541829.000   31.026163022  121.442465906    29.6649   2  10   0.2025   0.1428   0.2389  -0.1209  -0.0852   0.1326   1.00    1.1
2237 541830.000   31.026162869  121.442466000    29.6505   2  10   0.2009   0.1421   0.2378  -0.1201  -0.0847   0.1320   1.00    1.1
2237 541831.000   31.026162784  121.442466150    29.6376   2  10   0.1992   0.1414   0.2367  -0.1193  -0.0842   0.1314   1.00    1.1
2237 541832.000   31.026162692  121.442466265    29.6407   2  10   0.1976   0.1408   0.2356  -0.1186  -0.0837   0.1308   1.00    1.1
2237 541833.000   31.026162585  121.442466406    29.6368   2  10   0.1960   0.1401   0.2346  -0.1178  -0.0833   0.1301   1.00    1.1
2237 541834.000   31.026162417  121.442466545    29.6227   2  10   0.1945   0.1395   0.2335  -0.1171  -0.0828   0.1295   1.00    1.1
2237 541835.000   31.026162418  121.442466641    29.6128   2  10   0.1929   0.1388   0.2325  -0.1163  -0.0823   0.1290   1.00    1.1
2237 541836.000   31.026162242  121.442466797    29.5987   2  10   0.1914   0.1382   0.2315  -0.1156  -0.0819   0.1284   1.00    1.1
2237 541837.000   31.026162085  121.442467006    29.5867   2  10   0.1899   0.1376   0.2304  -0.1149  -0.0814   0.1278   1.00    1.1
2237 541838.000   31.026162173  121.442467073    29.5772   2  10   0.1884   0.1369   0.2294  -0.1141  -0.0810   0.1272   1.00    1.0
2237 541839.000   31.026162001  121.442467230    29.5686   2  10   0.1870   0.1363   0.2284  -0.1134  -0.0805   0.1266   1.00    1.0
2237 541840.000   31.026161886  121.442467303    29.5545   2  10   0.1855   0.1357   0.2275  -0.1127  -0.0801   0.1261   1.00    1.0
2237 541841.000   31.026161837  121.442467429    29.5469   2  10   0.1841   0.1351   0.2265  -0.1121  -0.0796   0.1255   1.00    1.0
2237 541842.000   31.026161803  121.442467539    29.5351   2  10   0.1827   0.1345   0.2255  -0.1114  -0.0792   0.1250   1.00    1.0
2237 541843.000   31.026161644  121.442467679    29.5161   2  10   0.1813   0.1340   0.2246  -0.1107  -0.0787   0.1244   1.00    1.0
2237 541844.000   31.026161600  121.442467773    29.5086   2  10   0.1800   0.1334   0.2236  -0.1101  -0.0783   0.1239   1.00    1.0
2237 541845.000   31.026161593  121.442467882    29.4895   2  10   0.1786   0.1328   0.2227  -0.1094  -0.0779   0.1233   1.00    1.0
2237 541846.000   31.026161420  121.442468032    29.4721   2  10   0.1773   0.1322   0.2217  -0.1088  -0.0774   0.1228   1.00    1.0
2237 541847.000   31.026161280  121.442468160    29.4566   2  10   0.1760   0.1317   0.2208  -0.1081  -0.0770   0.1223   1.00    1.0
2237 541848.000   31.026161101  121.442468379    29.4234   2  10   0.1747   0.1311   0.2199  -0.1075  -0.0766   0.1217   1.00    1.0
2237 541849.000   31.026161081  121.442468524    29.4138   2  10   0.1734   0.1306   0.2190  -0.1069  -0.0762   0.1212   1.00    1.0
2237 541850.000   31.026160863  121.442468650    29.3932   2  10   0.1722   0.1300   0.2181  -0.1063  -0.0758   0.1207   1.00    1.0
2237 541851.000   31.026160878  121.442468794    29.3733   2  10   0.1756   0.1297   0.2195  -0.1069  -0.0767   0.1253   1.00    1.0
2237 541852.000   31.026160696  121.442468933    29.3574   2  10   0.1732   0.1292   0.2180  -0.1063  -0.0763   0.1235   1.00    1.0
2237 541853.000   31.026160593  121.442469101    29.3399   2  10   0.1717   0.1287   0.2170  -0.1058  -0.0760   0.1227   1.00    1.0
2237 541854.000   31.026160498  121.442469227    29.3223   2  10   0.1705   0.1283   0.2161  -0.1054  -0.0758   0.1221   1.00    1.0
2237 541855.000   31.026160406  121.442469349    29.3063   2  10   0.1693   0.1278   0.2153  -0.1050  -0.0756   0.1217   1.00    1.0
2237 541856.000   31.026160419  121.442469409    29.2964   2  10   0.1683   0.1274   0.2145  -0.1045  -0.0753   0.1213   1.00    1.1
2237 541857.000   31.026160277  121.442469595    29.2812   2  10   0.1673   0.1270   0.2137  -0.1041  -0.0751   0.1209   1.00    1.1
2237 541858.000   31.026160209  121.442469743    29.2717   2  10   0.1663   0.1265   0.2129  -0.1037  -0.0749   0.1206   1.00    1.1
2237 541859.000   31.026160129  121.442469850    29.2552   2  10   0.1653   0.1261   0.2122  -0.1033  -0.0747   0.1203   1.00    1.1
2237 541860.000   31.026160124  121.442469988    29.2454   2  10   0.1643   0.1257   0.2115  -0.1029  -0.0744   0.1200   1.00    1.1
2237 541861.000   31.026160108  121.442470056    29.2348   2  10   0.1634   0.1252   0.2107  -0.1025  -0.0742   0.1197   1.00    1.1
2237 541862.000   31.026159955  121.442470176    29.2266   2  10   0.1625   0.1248   0.2100  -0.1021  -0.0740   0.1194   1.00    1.1
2237 541863.000   31.026159936  121.442470265    29.2159   2  10   0.1615   0.1244   0.2093  -0.1017  -0.0738   0.1191   1.00    1.1
2237 541864.000   31.026159851  121.442470412    29.2011   2  10   0.1606   0.1240   0.2086  -0.1014  -0.0736   0.1188   1.00    1.1
2237 541865.000   31.026159828  121.442470494    29.1949   2  10   0.1597   0.1236   0.2079  -0.1010  -0.0734   0.1185   1.00    1.1
2237 541866.000   31.026159851  121.442470637    29.1924   2  10   0.1589   0.1232   0.2072  -0.1006  -0.0732   0.1182   1.00    1.1
2237 541867.000   31.026159854  121.442470772    29.1809   2  10   0.1580   0.1228   0.2065  -0.1002  -0.0729   0.1179   1.00    1.1
2237 541868.000   31.026159743  121.442470865    29.1718   2  10   0.1571   0.1224   0.2059  -0.0999  -0.0727   0.1176   1.00    1.1
2237 541869.000   31.026159772  121.442470938    29.1580   2  10   0.1563   0.1220   0.2052  -0.0995  -0.0725   0.1173   1.00    1.1
2237 541870.000   31.026159834  121.442471041    29.1587   2  10   0.1554   0.1216   0.2045  -0.0991  -0.0723   0.1171   1.00    1.1
2237 541871.000   31.026159671  121.442471206    29.1437   2  10   0.1546   0.1212   0.2039  -0.0988  -0.0721   0.1168   1.00    1.2
2237 541872.000   31.026159748  121.442471305    29.1470   2  10   0.1538   0.1208   0.2032  -0.0984  -0.0719   0.1165   1.00    1.2
2237 541873.000   31.026159763  121.442471348    29.1371   2  10   0.1529   0.1204   0.2026  -0.0980  -0.0717   0.1162   1.00    1.2
2237 541874.000   31.026159733  121.442471448    29.1233   2  10   0.1521   0.1201   0.2019  -0.0977  -0.0715   0.1160   1.00    1.2
2237 541875.000   31.026159655  121.442471569    29.1077   2  10   0.1513   0.1197   0.2013  -0.0973  -0.0713   0.1157   1.00    1.2
2237 541876.000   31.026159555  121.442471649    29.1061   2  10   0.1505   0.1193   0.2007  -0.0970  -0.0711   0.1154   1.00    1.2
2237 541877.000   31.026159568  121.442471704    29.0965   2  10   0.1497   0.1189   0.2000  -0.0966  -0.0709   0.1151   1.00    1.2
2237 541878.000   31.026159682  121.442471732    29.0948   2   9   0.1525   0.1186   0.2013  -0.0968  -0.0712   0.1186   1.00    1.2
2237 541879.000   31.026159672  121.442471816    29.0876   2   9   0.1519   0.1182   0.2009  -0.0964  -0.0710   0.1185   1.00    1.2
2237 541880.000   31.026159689  121.442471864    29.0927   2   9   0.1512   0.1179   0.2005  -0.0961  -0.0707   0.1185   1.00    1.2
2237 541881.000   31.026159653  121.442471939    29.0798   2  10   0.1504   0.1175   0.1998  -0.0957  -0.0705   0.1182   1.00    1.0
2237 541882.000   31.026159708  121.442472045    29.0719   2  10   0.1480   0.1172   0.1985  -0.0952  -0.0702   0.1162   1.00    1.0
2237 541883.000   31.026159639  121.442472130    29.0521   2  10   0.1467   0.1168   0.1976  -0.0949  -0.0699   0.1154   1.00    1.0
2237 541884.000   31.026159583  121.442472153    29.0445   2  10   0.1457   0.1165   0.1969  -0.0945  -0.0697   0.1148   1.00    1.0
2237 541885.000   31.026159556  121.442472213    29.0343   2  10   0.1449   0.1161   0.1962  -0.0942  -0.0695   0.1144   1.00    1.0
2237 541886.000   31.026159623  121.442472247    29.0200   2  10   0.1441   0.1163   0.1963  -0.0941  -0.0707   0.1143   1.00    1.2
2237 541887.000   31.026159694  121.442472224    29.0319   2   9   0.1466   0.1161   0.1978  -0.0944  -0.0713   0.1177   1.00    1.7
2237 541888.000   31.026159777  121.442472256    29.0324   2   9   0.1461   0.1159   0.1974  -0.0942  -0.0713   0.1176   1.00    1.7
2237 541889.000   31.026159741  121.442472320    29.0258   2   9   0.1455   0.1156   0.1971  -0.0940  -0.0712   0.1176   1.00    1.7
2237 541890.000   31.026159721  121.442472339    29.0313   2   9   0.1450   0.1154   0.1968  -0.0937  -0.0712   0.1176   1.00    1.7
2237 541891.000   31.026159688  121.442472425    29.0103   2  10   0.1443   0.1151   0.1963  -0.0935  -0.0712   0.1173   1.00    1.0
2237 541892.000   31.026159699  121.442472369    29.0106   2  10   0.1437   0.1149   0.1958  -0.0933  -0.0712   0.1171   1.00    1.0
2237 541893.000   31.026159621  121.442472397    28.9943   2  10   0.1412   0.1146   0.1943  -0.0927  -0.0707   0.1149   1.00    1.1
2237 541894.000   31.026159794  121.442472393    29.0094   2   9   0.1426   0.1144   0.1951  -0.0928  -0.0711   0.1169   1.00    1.7
2237 541895.000   31.026159709  121.442472422    29.0023   2   9   0.1421   0.1142   0.1948  -0.0926  -0.0711   0.1169   1.00    1.7
2237 541896.000   31.026159762  121.442472473    29.0029   2   9   0.1416   0.1139   0.1945  -0.0924  -0.0710   0.1168   1.00    1.7
2237 541897.000   31.026159818  121.442472476    29.0062   2   9   0.1410   0.1137   0.1942  -0.0921  -0.0709   0.1168   1.00    1.7
2237 541898.000   31.026159803  121.442472515    28.9958   2   9   0.1405   0.1135   0.1939  -0.0919  -0.0709   0.1167   1.00    1.7
2237 541899.000   31.026159944  121.442472523    29.0079   2   9   0.1400   0.1132   0.1936  -0.0917  -0.0708   0.1167   1.00    1.7
2237 541900.000   31.026160060  121.442472542    29.0206   2   9   0.1395   0.1130   0.1933  -0.0915  -0.0708   0.1166   1.00    1.7
2237 541901.000   31.026160142  121.442472317    29.0443   2   9   0.1408   0.1168   0.2011  -0.0949  -0.0820   0.1218   1.00    1.0
2237 541902.000   31.026160232  121.442472325    29.0544   2   9   0.1390   0.1142   0.1970  -0.0923  -0.0762   0.1185   1.00    1.1
2237 541903.000   31.026160310  121.442472332    29.0499   2   9   0.1381   0.1132   0.1954  -0.0913  -0.0741   0.1173   1.00    1.1
2237 541904.000   31.026160120  121.442472717    29.0125   2   9   0.1396   0.1161   0.2002  -0.0944  -0.0816   0.1215   1.00    1.0
2237 541905.000   31.026160002  121.442472930    28.9872   2   9   0.1376   0.1131   0.1955  -0.0914  -0.0748   0.1177   1.00    1.0
2237 541906.000   31.026159902  121.442473230    28.9518   2   9   0.1367   0.1120   0.1936  -0.0902  -0.0723   0.1163   1.00    1.0
2237 541907.000   31.026159815  121.442473400    28.9434   2   9   0.1360   0.1112   0.1925  -0.0895  -0.0709   0.1155   1.00    1.0
2237 541908.000   31.026159820  121.442473550    28.9231   2   9   0.1355   0.1107   0.1917  -0.0890  -0.0699   0.1149   1.00    1.0
2237 541909.000   31.026159822  121.442473653    28.9243   2   9   0.1350   0.1102   0.1911  -0.0886  -0.0692   0.1145   1.00    1.0
2237 541910.000   31.026159745  121.442473777    28.8874   2   9   0.1345   0.1098   0.1905  -0.0883  -0.0686   0.1142   1.00    1.0
2237 541911.000   31.026159686  121.442473899    28.8852   2   9   0.1340   0.1094   0.1900  -0.0880  -0.0681   0.1139   1.00    1.0
2237 541912.000   31.026159706  121.442473981    28.8646   2   9   0.1336   0.1091   0.1895  -0.0877  -0.0677   0.1136   1.00    1.0
2237 541913.000   31.026159706  121.442474059    28.8474   2   9   0.1332   0.1088   0.1891  -0.0875  -0.0673   0.1134   1.00    1.0
2237 541914.000   31.026159620  121.442474177    28.8386   2   9   0.1328   0.1084   0.1887  -0.0872  -0.0669   0.1132   1.00    1.0
2237 541915.000   31.026159721  121.442474194    28.8276   2   9   0.1324   0.1081   0.1883  -0.0870  -0.0666   0.1129   1.00    1.0
2237 541916.000   31.026159584  121.442474359    28.8081   2   9   0.1320   0.1078   0.1879  -0.0868  -0.0662   0.1127   1.00    1.0
2237 541917.000   31.026159497  121.442474431    28.8025   2   9   0.1316   0.1075   0.1875  -0.0865  -0.0659   0.1125   1.00    1.0
2237 541918.000   31.026159585  121.442474434    28.7986   2   9   0.1312   0.1073   0.1871  -0.0863  -0.0656   0.1123   1.00    1.0
2237 541919.000   31.026159610  121.442474477    28.7889   2   9   0.1308   0.1070   0.1867  -0.0861  -0.0654   0.1121   1.00    1.0
2237 541920.000   31.026159560  121.442474532    28.7777   2   9   0.1304   0.1067   0.1863  -0.0859  -0.0651   0.1120   1.00    1.0
2237 541921.000   31.026159581  121.442474530    28.7774   2   9   0.1301   0.1064   0.1860  -0.0857  -0.0648   0.1118   1.00    1.0
2237 541922.000   31.026159663  121.442474538    28.7795   2   9   0.1297   0.1062   0.1856  -0.0855  -0.0645   0.1116   1.00    1.0
2237 541923.000   31.026159654  121.442474560    28.7731   2   9   0.1293   0.1059   0.1853  -0.0853  -0.0643   0.1114   1.00    1.0
2237 541924.000   31.026159612  121.442474547    28.7737   2   9   0.1289   0.1056   0.1849  -0.0851  -0.0640   0.1112   1.00    1.0
2237 541925.000   31.026159681  121.442474547    28.7635   2   9   0.1286   0.1054   0.1846  -0.0849  -0.0638   0.1111   1.00    1.0
2237 541926.000   31.026159676  121.442474548    28.7611   2   9   0.1282   0.1051   0.1842  -0.0847  -0.0635   0.1109   1.00    1.0
2237 541927.000   31.026159652  121.442474593    28.7591   2   9   0.1278   0.1049   0.1839  -0.0845  -0.0633   0.1107   1.00    1.0
2237 541928.000   31.026159756  121.442474549    28.7523   2   9   0.1275   0.1046   0.1835  -0.0843  -0.0631   0.1105   1.00    1.0
2237 541929.000   31.026159642  121.442474588    28.7433   2   9   0.1271   0.1044   0.1832  -0.0841  -0.0628   0.1104   1.00    1.0
2237 541930.000   31.026159709  121.442474532    28.7442   2   9   0.1267   0.1041   0.1828  -0.0839  -0.0626   0.1102   1.00    1.0
2237 541931.000   31.026159782  121.442474490    28.7501   2   9   0.1264   0.1039   0.1825  -0.0837  -0.0624   0.1100   1.00    1.0
2237 541932.000   31.026159748  121.442474483    28.7559   2   9   0.1260   0.1036   0.1822  -0.0835  -0.0621   0.1098   1.00    1.0
2237 541933.000   31.026159745  121.442474513    28.7524   2   9   0.1257   0.1034   0.1819  -0.0833  -0.0619   0.1097   1.00    1.0
2237 541934.000   31.026159849  121.442474461    28.7541   2   9   0.1253   0.1032   0.1815  -0.0831  -0.0617   0.1095   1.00    1.0
2237 541935.000   31.026159787  121.442474478    28.7522   2   9   0.1250   0.1029   0.1812  -0.0830  -0.0615   0.1093   1.00    1.0
2237 541936.000   31.026159753  121.442474491    28.7485   2   9   0.1246   0.1027   0.1809  -0.0828  -0.0612   0.1092   1.00    1.0
2237 541937.000   31.026159762  121.442474445    28.7476   2   9   0.1243   0.1025   0.1806  -0.0826  -0.0610   0.1090   1.00    1.0
2237 541938.000   31.026159858  121.442474442    28.7544   2   9   0.1240   0.1022   0.1802  -0.0824  -0.0608   0.1088   1.00    1.0
2237 541939.000   31.026159900  121.442474377    28.7575   2   9   0.1236   0.1020   0.1799  -0.0822  -0.0606   0.1087   1.00    1.0
2237 541940.000   31.026159871  121.442474383    28.7503   2   9   0.1233   0.1018   0.1796  -0.0820  -0.0604   0.1085   1.00    1.0
2237 541941.000   31.026159900  121.442474372    28.7543   2   9   0.1229   0.1015   0.1793  -0.0819  -0.0602   0.1083   1.00    1.0
2237 541942.000   31.026159973  121.442474306    28.7476   2   9   0.1226   0.1013   0.1790  -0.0817  -0.0600   0.1082   1.00    1.0
2237 541943.000   31.026159989  121.442474326    28.7605   2   9   0.1223   0.1011   0.1786  -0.0815  -0.0598   0.1080   1.00    1.0
2237 541944.000   31.026160088  121.442474251    28.7649   2   9   0.1219   0.1009   0.1783  -0.0813  -0.0596   0.1078   1.00    1.0
2237 541945.000   31.026160046  121.442474231    28.7680   2   9   0.1216   0.1006   0.1780  -0.0812  -0.0594   0.1077   1.00    1.0
2237 541946.000   31.026160091  121.442474210    28.7665   2   9   0.1213   0.1004   0.1777  -0.0810  -0.0591   0.1075   1.00    1.0
2237 541947.000   31.026160222  121.442474135    28.7770   2   9   0.1209   0.1002   0.1774  -0.0808  -0.0590   0.1073   1.00    1.0
2237 541948.000   31.026160180  121.442474180    28.7762   2   9   0.1206   0.1000   0.1771  -0.0806  -0.0587   0.1072   1.00    1.0
2237 541949.000   31.026160290  121.442474085    28.7775   2   9   0.1203   0.0998   0.1768  -0.0805  -0.0585   0.1070   1.00    1.0
2237 541950.000   31.026160358  121.442474069    28.7896   2   9   0.1200   0.0995   0.1765  -0.0803  -0.0583   0.1069   1.00    1.0
2237 541951.000   31.026160351  121.442474073    28.7881   2   9   0.1197   0.0993   0.1762  -0.0801  -0.0581   0.1067   1.00    1.0
2237 541952.000   31.026160341  121.442474074    28.7945   2   9   0.1193   0.0991   0.1759  -0.0799  -0.0580   0.1065   1.00    1.0
2237 541953.000   31.026160451  121.442474032    28.7905   2   9   0.1190   0.0989   0.1756  -0.0798  -0.0578   0.1064   1.00    1.0
2237 541954.000   31.026160486  121.442474003    28.7979   2   9   0.1187   0.0987   0.1753  -0.0796  -0.0576   0.1062   1.00    1.0
2237 541955.000   31.026160512  121.442474003    28.7971   2   9   0.1184   0.0985   0.1750  -0.0794  -0.0574   0.1060   1.00    1.0
2237 541956.000   31.026160505  121.442474012    28.8001   2   9   0.1181   0.0983   0.1747  -0.0793  -0.0572   0.1059   1.00    1.0
2237 541957.000   31.026160509  121.442473970    28.8021   2   9   0.1178   0.0981   0.1744  -0.0791  -0.0570   0.1057   1.00    1.0
2237 541958.000   31.026160458  121.442474057    28.7958   2   9   0.1175   0.0979   0.1741  -0.0789  -0.0568   0.1056   1.00    1.0
2237 541959.000   31.026160496  121.442474035    28.7980   2   9   0.1172   0.0977   0.1738  -0.0788  -0.0566   0.1054   1.00    1.0
2237 541960.000   31.026160495  121.442474035    28.7901   2   9   0.1169   0.0975   0.1735  -0.0786  -0.0564   0.1052   1.00    1.0
2237 541961.000   31.026160543  121.442474053    28.7919   2   9   0.1166   0.0973   0.1732  -0.0784  -0.0562   0.1051   1.00    1.0
2237 541962.000   31.026160514  121.442474075    28.7880   2   9   0.1162   0.0971   0.1729  -0.0783  -0.0560   0.1049   1.00    1.0
2237 541963.000   31.026160445  121.442474114    28.7829   2   9   0.1159   0.0969   0.1727  -0.0781  -0.0559   0.1047   1.00    1.0
2237 541964.000   31.026160509  121.442474136    28.7786   2   9   0.1157   0.0967   0.1724  -0.0780  -0.0557   0.1046   1.00    1.0
2237 541965.000   31.026160498  121.442474155    28.7794   2   9   0.1154   0.0965   0.1721  -0.0778  -0.0555   0.1044   1.00    1.0
2237 541966.000   31.026160481  121.442474197    28.7747   2   9   0.1151   0.0963   0.1718  -0.0776  -0.0553   0.1043   1.00    1.0
2237 541967.000   31.026160534  121.442474134    28.7788   2   9   0.1148   0.0961   0.1715  -0.0775  -0.0551   0.1041   1.00    1.0
2237 541968.000   31.026160528  121.442474173    28.7680   2   9   0.1145   0.0959   0.1712  -0.0773  -0.0549   0.1039   1.00    1.0
2237 541969.000   31.026160468  121.442474182    28.7717   2   9   0.1142   0.0957   0.1709  -0.0771  -0.0548   0.1038   1.00    1.0
2237 541970.000   31.026160488  121.442474173    28.7692   2   9   0.1139   0.0955   0.1707  -0.0770  -0.0546   0.1036   1.00    1.0
2237 541971.000   31.026160505  121.442474246    28.7575   2   9   0.1136   0.0953   0.1704  -0.0768  -0.0544   0.1035   1.00    1.0
2237 541972.000   31.026160533  121.442474197    28.7640   2   9   0.1133   0.0951   0.1701  -0.0767  -0.0542   0.1033   1.00    1.0
2237 541973.000   31.026160513  121.442474232    28.7580   2   9   0.1130   0.0949   0.1698  -0.0765  -0.0540   0.1031   1.00    1.0
2237 541974.000   31.026160539  121.442474230    28.7527   2   9   0.1127   0.0947   0.1695  -0.0764  -0.0539   0.1030   1.00    1.0
2237 541975.000   31.026160502  121.442474273    28.7443   2   9   0.1125   0.0945   0.1693  -0.0762  -0.0537   0.1028   1.00    1.0
2237 541976.000   31.026160530  121.442474230    28.7497   2   9   0.1122   0.0944   0.1690  -0.0760  -0.0535   0.1027   1.00    1.0
2237 541977.000   31.026160622  121.442474190    28.7582   2   9   0.1119   0.0942   0.1687  -0.0759  -0.0533   0.1025   1.00    1.0
2237 541978.000   31.026160626  121.442474206    28.7505   2   9   0.1116   0.0940   0.1684  -0.0757  -0.0532   0.1024   1.00    1.0
2237 541979.000   31.026160649  121.442474213    28.7564   2   9   0.1114   0.0938   0.1682  -0.0756  -0.0530   0.1022   1.00    1.0
2237 541980.000   31.026160641  121.442474215    28.7451   2   9   0.1111   0.0936   0.1679  -0.0754  -0.0528   0.1020   1.00    1.0
2237 541981.000   31.026160609  121.442474210    28.7405   2   9   0.1108   0.0934   0.1676  -0.0753  -0.0526   0.1019   1.00    1.0
2237 541982.000   31.026160639  121.442474195    28.7381   2   9   0.1105   0.0932   0.1674  -0.0751  -0.0525   0.1017   1.00    1.0
2237 541983.000   31.026160607  121.442474219    28.7342   2   9   0.1103   0.0931   0.1671  -0.0750  -0.0523   0.1016   1.00    1.0
2237 541984.000   31.026160605  121.442474252    28.7333   2   9   0.1100   0.0929   0.1668  -0.0748  -0.0521   0.1014   1.00    1.0
2237 541985.000   31.026160687  121.442474203    28.7315   2   9   0.1097   0.0927   0.1665  -0.0747  -0.0520   0.1013   1.00    1.0
2237 541986.000   31.026160709  121.442474195    28.7324   2   9   0.1095   0.0925   0.1663  -0.0745  -0.0518   0.1011   1.00    1.1
2237 541987.000   31.026160686  121.442474207    28.7339   2   9   0.1092   0.0924   0.1660  -0.0744  -0.0516   0.1010   1.00    1.1
2237 541988.000   31.026160740  121.442474210    28.7271   2   9   0.1089   0.0922   0.1658  -0.0742  -0.0514   0.1008   1.00    1.1
2237 541989.000   31.026160765  121.442474183    28.7272   2   9   0.1087   0.0920   0.1655  -0.0741  -0.0513   0.1006   1.00    1.1
2237 541990.000   31.026160748  121.442474171    28.7260   2   9   0.1084   0.0918   0.1652  -0.0739  -0.0511   0.1005   1.00    1.1
2237 541991.000   31.026160793  121.442474210    28.7242   2   9   0.1082   0.0917   0.1650  -0.0738  -0.0509   0.1003   1.00    1.1
2237 541992.000   31.026160771  121.442474171    28.7199   2   9   0.1079   0.0915   0.1647  -0.0736  -0.0508   0.1002   1.00    1.1
2237 541993.000   31.026160842  121.442474186    28.7242   2   9   0.1076   0.0913   0.1644  -0.0735  -0.0506   0.1000   1.00    1.1
2237 541994.000   31.026160771  121.442474253    28.7186   2   9   0.1074   0.0911   0.1642  -0.0733  -0.0504   0.0999   1.00    1.1
2237 541995.000   31.026160754  121.442474199    28.7095   2   9   0.1071   0.0910   0.1639  -0.0732  -0.0503   0.0997   1.00    1.1
2237 541996.000   31.026160804  121.442474256    28.7180   2   9   0.1069   0.0908   0.1637  -0.0730  -0.0501   0.0996   1.00    1.1
2237 541997.000   31.026160759  121.442474253    28.7088   2   9   0.1066   0.0906   0.1634  -0.0729  -0.0500   0.0994   1.00    1.1
2237 541998.000   31.026160800  121.442474231    28.7183   2   9   0.1064   0.0905   0.1631  -0.0728  -0.0498   0.0993   1.00    1.1
2237 541999.000   31.026160847  121.442474257    28.7189   2   9   0.1061   0.0903   0.1629  -0.0726  -0.0496   0.0991   1.00    1.1
2237 542000.000   31.026160867  121.442474248    28.7087   2   9   0.1059   0.0901   0.1626  -0.0725  -0.0495   0.0990   1.00    1.1
2237 542001.000   31.026160894  121.442474224    28.7130   2   9   0.1057   0.0900   0.1624  -0.0723  -0.0493   0.0988   1.00    1.1
2237 542002.000   31.026160877  121.442474261    28.7059   2   9   0.1054   0.0898   0.1621  -0.0722  -0.0491   0.0987   1.00    1.1
2237 542003.000   31.026160858  121.442474275    28.6996   2   9   0.1052   0.0896   0.1619  -0.0720  -0.0490   0.0985   1.00    1.1
2237 542004.000   31.026160882  121.442474276    28.7029   2   9   0.1049   0.0895   0.1616  -0.0719  -0.0488   0.0984   1.00    1.1
2237 542005.000   31.026160981  121.442474207    28.7125   2   9   0.1047   0.0893   0.1614  -0.0718  -0.0487   0.0982   1.00    1.1
2237 542006.000   31.026160960  121.442474205    28.7103   2   9   0.1044   0.0891   0.1611  -0.0716  -0.0485   0.0981   1.00    1.1
2237 542007.000   31.026160954  121.442474204    28.7059   2   9   0.1042   0.0890   0.1609  -0.0715  -0.0483   0.0979   1.00    1.1
2237 542008.000   31.026161059  121.442474163    28.7084   2   9   0.1040   0.0888   0.1606  -0.0713  -0.0482   0.0978   1.00    1.1
2237 542009.000   31.026161007  121.442474213    28.7120   2   9   0.1037   0.0887   0.1604  -0.0712  -0.0480   0.0976   1.00    1.1
2237 542010.000   31.026161007  121.442474195    28.7143   2   9   0.1035   0.0885   0.1601  -0.0711  -0.0479   0.0975   1.00    1.1
2237 542011.000   31.026161032  121.442474189    28.7125   2   9   0.1033   0.0883   0.1599  -0.0709  -0.0477   0.0973   1.00    1.1
2237 542012.000   31.026160993  121.442474258    28.7100   2   9   0.1030   0.0882   0.1596  -0.0708  -0.0476   0.0972   1.00    1.1
2237 542013.000   31.026161008  121.442474222    28.7114   2   9   0.1028   0.0880   0.1594  -0.0707  -0.0474   0.0970   1.00    1.1
2237 542014.000   31.026161024  121.442474207    28.7156   2   9   0.1026   0.0879   0.1591  -0.0705  -0.0473   0.0969   1.00    1.1
2237 542015.000   31.026161042  121.442474225    28.7163   2   9   0.1024   0.0877   0.1589  -0.0704  -0.0471   0.0967   1.00    1.1
2237 542016.000   31.026161035  121.442474229    28.7190   2   9   0.1021   0.0875   0.1587  -0.0702  -0.0469   0.0966   1.00    1.1
2237 542017.000   31.026160938  121.442474277    28.7131   2   9   0.1019   0.0874   0.1584  -0.0701  -0.0468   0.0964   1.00    1.1
2237 542018.000   31.026161107  121.442474218    28.7253   2   9   0.1017   0.0872   0.1582  -0.0700  -0.0466   0.0963   1.00    1.1
2237 542019.000   31.026161426  121.442473857    28.7333   2  10   0.1014   0.0870   0.1579  -0.0698  -0.0464   0.0961   1.00    1.0
2237 542020.000   31.026161447  121.442473823    28.7460   2   9   0.1012   0.0869   0.1577  -0.0696  -0.0463   0.0960   1.00    1.1
2237 542021.000   31.026156109  121.442474915    28.5029   2  10   0.0974   0.0864   0.1571  -0.0682  -0.0454   0.0943   1.00    1.0
2237 542022.000   31.026158435  121.442473932    28.6064   2  10   0.0959   0.0862   0.1567  -0.0676  -0.0449   0.0936   1.00    1.0
2237 542023.000   31.026159935  121.442473157    28.6801   2  10   0.0950   0.0859   0.1564  -0.0672  -0.0446   0.0932   1.00    1.1
2237 542024.000   31.026162703  121.442472377    28.8047   2   9   0.1002   0.0861   0.1567  -0.0689  -0.0456   0.0954   1.00    1.1
2237 542034.000   31.026162669  121.442472405    28.8101   2   9   0.1001   0.0860   0.1565  -0.0688  -0.0454   0.0953   1.00    1.1
2237 542039.000   31.026162759  121.442472374    28.8267   2   9   0.0999   0.0858   0.1562  -0.0686  -0.0452   0.0952   1.00    1.1
2237 542040.000   31.026162702  121.442472435    28.8172   2   9   0.0996   0.0856   0.1559  -0.0685  -0.0450   0.0951   1.00    1.1
2237 542041.000   31.026162835  121.442472380    28.8283   2   9   0.0994   0.0855   0.1557  -0.0684  -0.0449   0.0949   1.00    1.1
2237 542042.000   31.026162818  121.442472416    28.8372   2   9   0.0991   0.0853   0.1554  -0.0682  -0.0447   0.0948   1.00    1.1
2237 542043.000   31.026162827  121.442472397    28.8408   2   9   0.0989   0.0852   0.1552  -0.0681  -0.0445   0.0946   1.00    1.1
2237 542044.000   31.026162883  121.442472362    28.8410   2   9   0.0986   0.0850   0.1550  -0.0679  -0.0444   0.0944   1.00    1.1
2237 542045.000   31.026162801  121.442472389    28.8454   2   9   0.0984   0.0849   0.1547  -0.0678  -0.0442   0.0943   1.00    1.1
2237 542046.000   31.026162830  121.442472388    28.8588   2   9   0.0982   0.0847   0.1545  -0.0677  -0.0441   0.0941   1.00    1.1
2237 542047.000   31.026162792  121.442472440    28.8536   2   9   0.0979   0.0846   0.1542  -0.0675  -0.0439   0.0940   1.00    1.1
2237 542049.000   31.026163410  121.442471855    28.8867   2  10   0.0977   0.0844   0.1540  -0.0673  -0.0437   0.0938   1.00    1.0
2237 542050.000   31.026146941  121.442475937    28.1188   2  10   0.0937   0.0840   0.1533  -0.0659  -0.0427   0.0920   1.00    1.0
2237 542051.000   31.026152851  121.442473973    28.3931   2  10   0.0921   0.0837   0.1529  -0.0653  -0.0422   0.0913   1.00    1.0
2237 542052.000   31.026156242  121.442472710    28.5470   2  10   0.0912   0.0835   0.1526  -0.0649  -0.0419   0.0909   1.00    1.0
2237 542053.000   31.026158184  121.442471830    28.6345   2  10   0.0905   0.0832   0.1523  -0.0646  -0.0416   0.0905   1.00    1.0
2237 542054.000   31.026128418  121.442479610    27.2456   2  10   0.0900   0.0830   0.1521  -0.0643  -0.0414   0.0903   1.00    1.0
2237 542055.000   31.026133715  121.442477836    27.4798   2  10   0.0895   0.0828   0.1518  -0.0640  -0.0411   0.0900   1.00    1.0
2237 542056.000   31.026138005  121.442476416    27.6781   2  10   0.0891   0.0826   0.1515  -0.0638  -0.0409   0.0898   1.00    1.0
2237 542057.000   31.026141300  121.442475270    27.8235   2  10   0.0887   0.0825   0.1513  -0.0636  -0.0407   0.0895   1.00    1.0
2237 542058.000   31.026143886  121.442474301    27.9246   2  10   0.0884   0.0823   0.1510  -0.0634  -0.0405   0.0893   1.00    1.0
2237 542059.000   31.026146071  121.442473486    28.0261   2  10   0.0880   0.0821   0.1508  -0.0631  -0.0403   0.0891   1.00    1.0
2237 542060.000   31.026147947  121.442472801    28.1018   2  10   0.0877   0.0819   0.1505  -0.0629  -0.0401   0.0889   1.00    1.0
2237 542061.000   31.026149455  121.442472153    28.1659   2  10   0.0874   0.0817   0.1503  -0.0627  -0.0399   0.0887   1.00    1.0
2237 542062.000   31.026150828  121.442471579    28.2256   2  10   0.0871   0.0815   0.1500  -0.0626  -0.0397   0.0886   1.00    1.0
2237 542063.000   31.026151959  121.442471087    28.2650   2  10   0.0868   0.0813   0.1498  -0.0624  -0.0395   0.0884   1.00    1.0
2237 542064.000   31.026152826  121.442470735    28.3112   2  10   0.0865   0.0812   0.1496  -0.0622  -0.0393   0.0882   1.00    1.0
2237 542065.000   31.026153869  121.442470308    28.3443   2  10   0.0862   0.0810   0.1493  -0.0620  -0.0391   0.0880   1.00    1.0
2237 542066.000   31.026154764  121.442469913    28.3773   2  10   0.0859   0.0808   0.1491  -0.0618  -0.0389   0.0878   1.00    1.0
2237 542067.000   31.026155461  121.442469586    28.4029   2  10   0.0856   0.0806   0.1488  -0.0616  -0.0387   0.0876   1.00    1.1
2237 542068.000   31.026156088  121.442469322    28.4261   2  10   0.0853   0.0805   0.1486  -0.0614  -0.0385   0.0875   1.00    1.0
2237 542069.000   31.026156500  121.442469064    28.4412   2  10   0.0851   0.0803   0.1484  -0.0613  -0.0383   0.0873   1.00    1.0
2237 542070.000   31.026157213  121.442468758    28.4666   2  10   0.0848   0.0801   0.1481  -0.0611  -0.0381   0.0871   1.00    1.0
2237 542071.000   31.026157859  121.442468422    28.4823   2  10   0.0845   0.0799   0.1479  -0.0609  -0.0379   0.0869   1.00    1.1
2237 542072.000   31.026158473  121.442468112    28.5102   2  10   0.0843   0.0798   0.1476  -0.0607  -0.0377   0.0868   1.00    1.1
2237 542073.000   31.026158819  121.442467940    28.5121   2  10   0.0840   0.0796   0.1474  -0.0606  -0.0375   0.0866   1.00    1.0
2237 542074.000   31.026159117  121.442467695    28.5344   2  10   0.0838   0.0794   0.1472  -0.0604  -0.0374   0.0864   1.00    1.0
2237 542075.000   31.026167249  121.442465577    28.9080   2   9   0.0915   0.0798   0.1478  -0.0629  -0.0391   0.0897   1.00    1.0
2237 542076.000   31.026167310  121.442465560    28.9215   2   9   0.0914   0.0796   0.1476  -0.0628  -0.0389   0.0896   1.00    1.0
2237 542077.000   31.026167206  121.442465630    28.9214   2   9   0.0912   0.0795   0.1474  -0.0627  -0.0388   0.0894   1.00    1.0
2237 542078.000   31.026167138  121.442465669    28.9205   2   9   0.0910   0.0794   0.1472  -0.0626  -0.0386   0.0893   1.00    1.1
2237 542079.000   31.026167176  121.442465667    28.9236   2   9   0.0908   0.0793   0.1469  -0.0625  -0.0385   0.0891   1.00    1.1
2237 542080.000   31.026167169  121.442465699    28.9163   2   9   0.0906   0.0791   0.1467  -0.0623  -0.0383   0.0890   1.00    1.1
2237 542081.000   31.026167097  121.442465736    28.9121   2   9   0.0905   0.0790   0.1465  -0.0622  -0.0382   0.0889   1.00    1.1
2237 542082.000   31.026167039  121.442465792    28.9057   2   9   0.0903   0.0789   0.1463  -0.0621  -0.0381   0.0887   1.00    1.1
2237 542083.000   31.026167057  121.442465770    28.9154   2   9   0.0901   0.0787   0.1461  -0.0620  -0.0379   0.0886   1.00    1.1
2237 542086.000   31.026167022  121.442465840    28.9145   2   9   0.0899   0.0786   0.1458  -0.0619  -0.0377   0.0885   1.00    1.1
2237 542087.000   31.026167005  121.442465827    28.9149   2   9   0.0898   0.0785   0.1456  -0.0618  -0.0376   0.0883   1.00    1.1
2237 542088.000   31.026166940  121.442465863    28.9122   2   9   0.0896   0.0784   0.1454  -0.0617  -0.0375   0.0882   1.00    1.1
2237 542089.000   31.026166932  121.442465923    28.9085   2   9   0.0894   0.0782   0.1452  -0.0616  -0.0373   0.0881   1.00    1.1
2237 542090.000   31.026166897  121.442465959    28.9074   2   9   0.0892   0.0781   0.1450  -0.0615  -0.0372   0.0879   1.00    1.1
2237 542091.000   31.026166820  121.442465978    28.9035   2   9   0.0891   0.0780   0.1447  -0.0613  -0.0370   0.0878   1.00    1.1
2237 542092.000   31.026166822  121.442466007    28.9032   2   9   0.0889   0.0779   0.1445  -0.0612  -0.0369   0.0877   1.00    1.1
2237 542093.000   31.026166801  121.442466014    28.9034   2   9   0.0887   0.0777   0.1443  -0.0611  -0.0368   0.0875   1.00    1.1
2237 542094.000   31.026166741  121.442466074    28.8949   2   9   0.0886   0.0776   0.1441  -0.0610  -0.0366   0.0874   1.00    1.1
2237 542095.000   31.026166734  121.442466081    28.9011   2   9   0.0884   0.0775   0.1439  -0.0609  -0.0365   0.0873   1.00    1.1
2237 542096.000   31.026166637  121.442466138    28.8962   2   9   0.0882   0.0774   0.1437  -0.0608  -0.0363   0.0871   1.00    1.1
2237 542097.000   31.026166686  121.442466131    28.8968   2   9   0.0881   0.0773   0.1435  -0.0607  -0.0362   0.0870   1.00    1.1
2237 542098.000   31.026166612  121.442466234    28.8969   2   9   0.0879   0.0771   0.1432  -0.0606  -0.0361   0.0869   1.00    1.1
2237 542099.000   31.026166550  121.442466257    28.8830   2   9   0.0877   0.0770   0.1430  -0.0605  -0.0359   0.0867   1.00    1.1
2237 542100.000   31.026166527  121.442466287    28.8801   2   9   0.0876   0.0769   0.1428  -0.0604  -0.0358   0.0866   1.00    1.1
2237 542101.000   31.026166525  121.442466307    28.8861   2   9   0.0874   0.0768   0.1426  -0.0603  -0.0356   0.0865   1.00    1.1
2237 542102.000   31.026166438  121.442466362    28.8689   2   9   0.0873   0.0767   0.1424  -0.0602  -0.0355   0.0863   1.00    1.1
2237 542103.000   31.026166365  121.442466440    28.8687   2   9   0.0871   0.0765   0.1422  -0.0601  -0.0354   0.0862   1.00    1.1
2237 542104.000   31.026166358  121.442466453    28.8698   2   9   0.0870   0.0764   0.1420  -0.0599  -0.0352   0.0861   1.00    1.1
2237 542105.000   31.026166316  121.442466487    28.8713   2   9   0.0868   0.0763   0.1418  -0.0598  -0.0351   0.0859   1.00    1.1
2237 542106.000   31.026166278  121.442466524    28.8641   2   9   0.0866   0.0762   0.1416  -0.0597  -0.0350   0.0858   1.00    1.1
2237 542107.000   31.026166239  121.442466577    28.8571   2   9   0.0865   0.0761   0.1414  -0.0596  -0.0348   0.0857   1.00    1.1
2237 542109.000   31.026166219  121.442466592    28.8584   2   9   0.0863   0.0759   0.1411  -0.0595  -0.0347   0.0856   1.00    1.1
2237 542113.000   31.026166126  121.442466629    28.8483   2   9   0.0862   0.0758   0.1409  -0.0594  -0.0345   0.0855   1.00    1.1
2237 542114.000   31.026166097  121.442466679    28.8441   2   9   0.0861   0.0757   0.1407  -0.0593  -0.0344   0.0853   1.00    1.1
2237 542115.000   31.026165761  121.442466999    28.8241   2  10   0.0859   0.0756   0.1405  -0.0592  -0.0342   0.0852   1.00    1.0
2237 542116.000   31.026165838  121.442467005    28.8353   2   9   0.0857   0.0754   0.1403  -0.0591  -0.0341   0.0851   1.00    1.1
2237 542117.000   31.026165779  121.442467043    28.8298   2   9   0.0856   0.0753   0.1401  -0.0590  -0.0340   0.0849   1.00    1.1
2237 542118.000   31.026165770  121.442467087    28.8208   2   9   0.0854   0.0752   0.1399  -0.0589  -0.0338   0.0848   1.00    1.1
2237 542119.000   31.026165914  121.442466902    28.8478   2   9   0.0679   0.0565   0.1332  -0.0301   0.0339   0.0695   1.00    1.1
2237 542120.000   31.026165886  121.442466874    28.8220   2   9   0.0662   0.0549   0.1303  -0.0266   0.0387   0.0665   1.00    1.2
2237 542121.000   31.026166041  121.442466769    28.8212   2  10   0.0674   0.0564   0.1285  -0.0297   0.0391   0.0659   1.00    1.0
2237 542122.000   31.026165915  121.442466769    28.8104   2   9   0.0673   0.0563   0.1283  -0.0297   0.0390   0.0659   1.00    1.2
2237 542123.000   31.026165991  121.442466724    28.8223   2   9   0.0673   0.0563   0.1282  -0.0298   0.0390   0.0658   1.00    1.2
2237 542124.000   31.026165923  121.442466809    28.8212   2   9   0.0672   0.0562   0.1280  -0.0298   0.0389   0.0658   1.00    1.2
2237 542125.000   31.026165882  121.442466831    28.8083   2   9   0.0672   0.0562   0.1278  -0.0298   0.0389   0.0658   1.00    1.2
2237 542126.000   31.026166094  121.442466589    28.8091   2  10   0.0671   0.0561   0.1277  -0.0298   0.0388   0.0657   1.00    1.0
2237 542127.000   31.026166307  121.442466385    28.8000   2  10   0.0614   0.0557   0.1270  -0.0269   0.0397   0.0633   1.00    1.0
2237 542132.000   31.026166023  121.442466452    28.7795   2   9   0.0670   0.0560   0.1273  -0.0299   0.0387   0.0657   1.00    1.1
2237 542133.000   31.026166262  121.442466253    28.7776   2  10   0.0669   0.0560   0.1272  -0.0299   0.0387   0.0656   1.00    1.0
2237 542134.000   31.026166341  121.442466055    28.7625   2  10   0.0612   0.0556   0.1265  -0.0270   0.0395   0.0632   1.00    1.0
2237 542135.000   31.026166506  121.442465890    28.7569   2  10   0.0591   0.0554   0.1261  -0.0260   0.0398   0.0623   1.00    1.0
2237 542136.000   31.026166602  121.442465698    28.7423   2  10   0.0580   0.0553   0.1259  -0.0255   0.0399   0.0618   1.00    1.0
2237 542137.000   31.026166632  121.442465517    28.7391   2  10   0.0573   0.0552   0.1256  -0.0252   0.0399   0.0615   1.00    1.0
2237 542138.000   31.026166725  121.442465382    28.7212   2  10   0.0568   0.0551   0.1255  -0.0250   0.0399   0.0613   1.00    1.0
2237 542139.000   31.026166830  121.442465202    28.7144   2  10   0.0564   0.0550   0.1253  -0.0249   0.0399   0.0611   1.00    1.0
2237 542140.000   31.026166868  121.442465062    28.7021   2  10   0.0561   0.0550   0.1251  -0.0248   0.0399   0.0610   1.00    1.0
2237 542141.000   31.026166989  121.442464870    28.6961   2  10   0.0558   0.0549   0.1249  -0.0247   0.0398   0.0608   1.00    1.0
2237 542142.000   31.026167023  121.442464765    28.6847   2  10   0.0556   0.0548   0.1247  -0.0247   0.0398   0.0607   1.00    1.1
2237 542143.000   31.026166953  121.442464623    28.6703   2  10   0.0554   0.0548   0.1246  -0.0246   0.0398   0.0606   1.00    1.1
2237 542144.000   31.026167023  121.442464487    28.6597   2  10   0.0552   0.0547   0.1244  -0.0246   0.0397   0.0606   1.00    1.1
2237 542145.000   31.026167202  121.442464363    28.6562   2  10   0.0551   0.0546   0.1242  -0.0246   0.0397   0.0605   1.00    1.0
2237 542146.000   31.026167317  121.442464197    28.6433   2  10   0.0549   0.0546   0.1241  -0.0246   0.0396   0.0604   1.00    1.0
2237 542147.000   31.026167408  121.442464041    28.6347   2  10   0.0548   0.0545   0.1239  -0.0246   0.0396   0.0603   1.00    1.0
2237 542148.000   31.026167465  121.442463888    28.6286   2  10   0.0547   0.0544   0.1237  -0.0245   0.0395   0.0603   1.00    1.0
2237 542149.000   31.026167546  121.442463778    28.6277   2  10   0.0545   0.0544   0.1236  -0.0245   0.0395   0.0602   1.00    1.0
2237 542150.000   31.026167599  121.442463673    28.6131   2  10   0.0544   0.0543   0.1234  -0.0245   0.0394   0.0601   1.00    1.0
2237 542151.000   31.026167704  121.442463538    28.6119   2  10   0.0543   0.0543   0.1233  -0.0245   0.0394   0.0601   1.00    1.0
2237 542152.000   31.026167739  121.442463424    28.6016   2  10   0.0542   0.0542   0.1231  -0.0245   0.0393   0.0600   1.00    1.0
2237 542153.000   31.026167780  121.442463318    28.5895   2  10   0.0541   0.0541   0.1229  -0.0245   0.0393   0.0599   1.00    1.0
2237 542154.000   31.026167760  121.442463184    28.5821   2  10   0.0540   0.0541   0.1228  -0.0246   0.0392   0.0599   1.00    1.0
2237 542155.000   31.026167712  121.442463182    28.5697   2  10   0.0539   0.0540   0.1226  -0.0246   0.0392   0.0598   1.00    1.0
2237 542156.000   31.026167801  121.442463095    28.5679   2  10   0.0538   0.0540   0.1225  -0.0246   0.0391   0.0598   1.00    1.0
2237 542157.000   31.026167701  121.442463010    28.5567   2  10   0.0537   0.0539   0.1223  -0.0246   0.0391   0.0597   1.00    1.0
2237 542158.000   31.026167746  121.442462946    28.5550   2  10   0.0536   0.0539   0.1222  -0.0246   0.0390   0.0596   1.00    1.0
2237 542159.000   31.026167720  121.442462857    28.5388   2  10   0.0535   0.0538   0.1220  -0.0246   0.0390   0.0596   1.00    1.0
2237 542160.000   31.026167842  121.442462757    28.5355   2  10   0.0535   0.0537   0.1219  -0.0246   0.0389   0.0595   1.00    1.0
2237 542161.000   31.026167908  121.442462614    28.5403   2  10   0.0534   0.0537   0.1217  -0.0246   0.0389   0.0595   1.00    1.0
2237 542162.000   31.026167884  121.442462607    28.5286   2  10   0.0533   0.0536   0.1215  -0.0246   0.0388   0.0594   1.00    1.0
2237 542163.000   31.026168064  121.442462497    28.5289   2  10   0.0532   0.0536   0.1214  -0.0246   0.0388   0.0594   1.00    1.0
2237 542164.000   31.026168030  121.442462386    28.5166   2  10   0.0531   0.0535   0.1212  -0.0246   0.0387   0.0593   1.00    1.0
2237 542165.000   31.026168201  121.442462274    28.5155   2  10   0.0530   0.0535   0.1211  -0.0246   0.0387   0.0593   1.00    1.0
2237 542166.000   31.026168135  121.442462260    28.5083   2  10   0.0530   0.0534   0.1209  -0.0246   0.0386   0.0592   1.00    1.0
2237 542167.000   31.026168201  121.442462135    28.5002   2  10   0.0529   0.0534   0.1208  -0.0246   0.0386   0.0591   1.00    1.0
2237 542168.000   31.026168259  121.442462067    28.4924   2  10   0.0528   0.0533   0.1206  -0.0246   0.0385   0.0591   1.00    1.0
2237 542169.000   31.026168445  121.442461912    28.5022   2  10   0.0527   0.0532   0.1205  -0.0247   0.0384   0.0590   1.00    1.0
2237 542170.000   31.026168509  121.442461859    28.4977   2  10   0.0526   0.0532   0.1203  -0.0247   0.0384   0.0590   1.00    1.0
2237 542171.000   31.026168392  121.442461791    28.4813   2  10   0.0526   0.0531   0.1202  -0.0247   0.0384   0.0589   1.00    1.0
2237 542172.000   31.026168268  121.442461750    28.4713   2  10   0.0525   0.0531   0.1200  -0.0247   0.0383   0.0589   1.00    1.0
2237 542173.000   31.026168617  121.442461593    28.4782   2  10   0.0524   0.0530   0.1199  -0.0247   0.0382   0.0588   1.00    1.0
2237 542174.000   31.026168457  121.442461557    28.4650   2  10   0.0524   0.0530   0.1197  -0.0247   0.0382   0.0588   1.00    1.0
2237 542175.000   31.026168626  121.442461465    28.4762   2  10   0.0523   0.0529   0.1196  -0.0247   0.0381   0.0587   1.00    1.0
2237 542176.000   31.026168658  121.442461419    28.4707   2  10   0.0522   0.0529   0.1194  -0.0247   0.0381   0.0587   1.00    1.0
2237 542177.000   31.026168849  121.442461305    28.4626   2  10   0.0521   0.0528   0.1193  -0.0247   0.0380   0.0586   1.00    1.0
2237 542178.000   31.026168305  121.442461443    28.4401   2   9   0.0646   0.0535   0.1204  -0.0306   0.0360   0.0639   1.00    1.1
2237 542179.000   31.026168199  121.442461478    28.4251   2   9   0.0645   0.0534   0.1203  -0.0306   0.0360   0.0639   1.00    1.1
2237 542180.000   31.026168172  121.442461507    28.4342   2   9   0.0645   0.0534   0.1201  -0.0306   0.0359   0.0639   1.00    1.1
